{
   "type": "FeatureCollection",
   "features": [
  {
    "type": "Feature",
    "geometry": {
       "type": "Point",
       "coordinates":  [ -75.36253,38.68974,14 ]
    },
    "properties": {
    "STATION":"USW00013764",
    "NAME":"GEORGETOWN DELAWARE COASTAL AIRPORT, DE US",
    "DATE":"1/1/2019",
    "TAVG":null,
    "TMAX":68,
    "TMIN":46,
    "MON":"Janauary"
    }
  },
  {
    "type": "Feature",
    "geometry": {
       "type": "Point",
       "coordinates":  [ -75.36253,38.68974,14 ]
    },
    "properties": {
    "STATION":"USW00013764",
    "NAME":"GEORGETOWN DELAWARE COASTAL AIRPORT, DE US",
    "DATE":"1/2/2019",
    "TAVG":null,
    "TMAX":49,
    "TMIN":39,
    "MON":"Janauary"
    }
  },
  {
    "type": "Feature",
    "geometry": {
       "type": "Point",
       "coordinates":  [ -75.36253,38.68974,14 ]
    },
    "properties": {
    "STATION":"USW00013764",
    "NAME":"GEORGETOWN DELAWARE COASTAL AIRPORT, DE US",
    "DATE":"1/3/2019",
    "TAVG":null,
    "TMAX":52,
    "TMIN":32,
    "MON":"Janauary"
    }
  },
  {
    "type": "Feature",
    "geometry": {
       "type": "Point",
       "coordinates":  [ -75.36253,38.68974,14 ]
    },
    "properties": {
    "STATION":"USW00013764",
    "NAME":"GEORGETOWN DELAWARE COASTAL AIRPORT, DE US",
    "DATE":"1/4/2019",
    "TAVG":null,
    "TMAX":52,
    "TMIN":30,
    "MON":"Janauary"
    }
  },
  {
    "type": "Feature",
    "geometry": {
       "type": "Point",
       "coordinates":  [ -75.60567,39.6744,24.1 ]
    },
    "properties": {
    "STATION":"USW00013781",
    "NAME":"WILMINGTON NEW CASTLE CO AIRPORT, DE US",
    "DATE":"1/1/2019",
    "TAVG":52,
    "TMAX":60,
    "TMIN":40,
    "MON":"Janauary"
    }
  },
  {
    "type": "Feature",
    "geometry": {
       "type": "Point",
       "coordinates":  [ -75.60567,39.6744,24.1 ]
    },
    "properties": {
    "STATION":"USW00013781",
    "NAME":"WILMINGTON NEW CASTLE CO AIRPORT, DE US",
    "DATE":"1/2/2019",
    "TAVG":41,
    "TMAX":43,
    "TMIN":34,
    "MON":"Janauary"
    }
  },
  {
    "type": "Feature",
    "geometry": {
       "type": "Point",
       "coordinates":  [ -75.60567,39.6744,24.1 ]
    },
    "properties": {
    "STATION":"USW00013781",
    "NAME":"WILMINGTON NEW CASTLE CO AIRPORT, DE US",
    "DATE":"1/3/2019",
    "TAVG":42,
    "TMAX":46,
    "TMIN":31,
    "MON":"Janauary"
    }
  },
  {
    "type": "Feature",
    "geometry": {
       "type": "Point",
       "coordinates":  [ -75.60567,39.6744,24.1 ]
    },
    "properties": {
    "STATION":"USW00013781",
    "NAME":"WILMINGTON NEW CASTLE CO AIRPORT, DE US",
    "DATE":"1/4/2019",
    "TAVG":36,
    "TMAX":46,
    "TMIN":27,
    "MON":"Janauary"
    }
  },
  {
    "type": "Feature",
    "geometry": {
       "type": "Point",
       "coordinates":  [ -90.1641,41.1204,233.2 ]
    },
    "properties": {
    "STATION":"USC00110140",
    "NAME":"ALTONA, IL US",
    "DATE":"1/1/2019",
    "TAVG":38,
    "TMAX":31,
    "TMIN":32,
    "MON":"Janauary"
    }
  },
  {
    "type": "Feature",
    "geometry": {
       "type": "Point",
       "coordinates":  [ -90.1641,41.1204,233.2 ]
    },
    "properties": {
    "STATION":"USC00110140",
    "NAME":"ALTONA, IL US",
    "DATE":"1/2/2019",
    "TAVG":33,
    "TMAX":25,
    "TMIN":26,
    "MON":"Janauary"
    }
  },
  {
    "type": "Feature",
    "geometry": {
       "type": "Point",
       "coordinates":  [ -90.1641,41.1204,233.2 ]
    },
    "properties": {
    "STATION":"USC00110140",
    "NAME":"ALTONA, IL US",
    "DATE":"1/3/2019",
    "TAVG":31,
    "TMAX":21,
    "TMIN":21,
    "MON":"Janauary"
    }
  },
  {
    "type": "Feature",
    "geometry": {
       "type": "Point",
       "coordinates":  [ -90.1641,41.1204,233.2 ]
    },
    "properties": {
    "STATION":"USC00110140",
    "NAME":"ALTONA, IL US",
    "DATE":"1/4/2019",
    "TAVG":43,
    "TMAX":21,
    "TMIN":29,
    "MON":"Janauary"
    }
  },
  {
    "type": "Feature",
    "geometry": {
       "type": "Point",
       "coordinates":  [ -90.14886,38.86702,132.6 ]
    },
    "properties": {
    "STATION":"USC00110137",
    "NAME":"ALTON MELVIN PRICE LOCK AND DAM, IL US",
    "DATE":"1/1/2019",
    "TAVG":47,
    "TMAX":27,
    "TMIN":37,
    "MON":"Janauary"
    }
  },
  {
    "type": "Feature",
    "geometry": {
       "type": "Point",
       "coordinates":  [ -90.14886,38.86702,132.6 ]
    },
    "properties": {
    "STATION":"USC00110137",
    "NAME":"ALTON MELVIN PRICE LOCK AND DAM, IL US",
    "DATE":"1/2/2019",
    "TAVG":37,
    "TMAX":32,
    "TMIN":32,
    "MON":"Janauary"
    }
  },
  {
    "type": "Feature",
    "geometry": {
       "type": "Point",
       "coordinates":  [ -90.14886,38.86702,132.6 ]
    },
    "properties": {
    "STATION":"USC00110137",
    "NAME":"ALTON MELVIN PRICE LOCK AND DAM, IL US",
    "DATE":"1/3/2019",
    "TAVG":37,
    "TMAX":29,
    "TMIN":29,
    "MON":"Janauary"
    }
  },
  {
    "type": "Feature",
    "geometry": {
       "type": "Point",
       "coordinates":  [ -90.14886,38.86702,132.6 ]
    },
    "properties": {
    "STATION":"USC00110137",
    "NAME":"ALTON MELVIN PRICE LOCK AND DAM, IL US",
    "DATE":"1/4/2019",
    "TAVG":43,
    "TMAX":28,
    "TMIN":34,
    "MON":"Janauary"
    }
  },
  {
    "type": "Feature",
    "geometry": {
       "type": "Point",
       "coordinates":  [ -90.7447,41.1977,222.5 ]
    },
    "properties": {
    "STATION":"USC00110072",
    "NAME":"ALEDO, IL US",
    "DATE":"1/1/2019",
    "TAVG":35,
    "TMAX":28,
    "TMIN":29,
    "MON":"Janauary"
    }
  },
  {
    "type": "Feature",
    "geometry": {
       "type": "Point",
       "coordinates":  [ -90.7447,41.1977,222.5 ]
    },
    "properties": {
    "STATION":"USC00110072",
    "NAME":"ALEDO, IL US",
    "DATE":"1/2/2019",
    "TAVG":null,
    "TMAX":20,
    "TMIN":23,
    "MON":"Janauary"
    }
  },
  {
    "type": "Feature",
    "geometry": {
       "type": "Point",
       "coordinates":  [ -90.7447,41.1977,222.5 ]
    },
    "properties": {
    "STATION":"USC00110072",
    "NAME":"ALEDO, IL US",
    "DATE":"1/3/2019",
    "TAVG":28,
    "TMAX":20,
    "TMIN":21,
    "MON":"Janauary"
    }
  },
  {
    "type": "Feature",
    "geometry": {
       "type": "Point",
       "coordinates":  [ -90.7447,41.1977,222.5 ]
    },
    "properties": {
    "STATION":"USC00110072",
    "NAME":"ALEDO, IL US",
    "DATE":"1/4/2019",
    "TAVG":44,
    "TMAX":21,
    "TMIN":26,
    "MON":"Janauary"
    }
  }
]
}